{"type":"FeatureCollection","totalFeatures":13,"features":[{"type":"Feature","id":"Schools_High.fid-e737583_15834bdec5b_70e6","geometry":{"type":"Point","coordinates":[1311661.6690210416,585894.5092805235]},"geometry_name":"geom","properties":{"Name":"Glenelg","Address":"14025 BURNTWOODS RD","City":"Glenelg","Zipcode":"21737"}},{"type":"Feature","id":"Schools_High.fid-e737583_15834bdec5b_70e7","geometry":{"type":"Point","coordinates":[1330830.2858533377,602789.1264977695]},"geometry_name":"geom","properties":{"Name":"Marriotts Ridge","Address":"12100 WOODFORD DR","City":"Marriottsville","Zipcode":"21104"}},{"type":"Feature","id":"Schools_High.fid-e737583_15834bdec5b_70e8","geometry":{"type":"Point","coordinates":[1365779.3478907184,560672.7220443557]},"geometry_name":"geom","properties":{"Name":"Long Reach","Address":"6101 OLD DOBBIN LN","City":"Columbia","Zipcode":"21045"}},{"type":"Feature","id":"Schools_High.fid-e737583_15834bdec5b_70e9","geometry":{"type":"Point","coordinates":[1357521.8319140594,594493.5641955048]},"geometry_name":"geom","properties":{"Name":"Mt. Hebron","Address":"9440 OLD FREDERICK RD","City":"Ellicott City","Zipcode":"21042"}},{"type":"Feature","id":"Schools_High.fid-e737583_15834bdec5b_70ea","geometry":{"type":"Point","coordinates":[1346149.1998624203,554196.6520981742]},"geometry_name":"geom","properties":{"Name":"Atholton","Address":"6520 FREETOWN RD","City":"Columbia","Zipcode":"21044"}},{"type":"Feature","id":"Schools_High.fid-e737583_15834bdec5b_70eb","geometry":{"type":"Point","coordinates":[1342742.2977364487,571272.135694069]},"geometry_name":"geom","properties":{"Name":"Applications Research Lab","Address":"10920 CLARKSVILLE PK","City":"Ellicott City","Zipcode":"21042"}},{"type":"Feature","id":"Schools_High.fid-e737583_15834bdec5b_70ec","geometry":{"type":"Point","coordinates":[1351918.4861444647,546560.7545491043]},"geometry_name":"geom","properties":{"Name":"Hammond","Address":"8800 GUILFORD RD","City":"Columbia","Zipcode":"21046"}},{"type":"Feature","id":"Schools_High.fid-e737583_15834bdec5b_70ed","geometry":{"type":"Point","coordinates":[1336986.474000388,540904.4365877047]},"geometry_name":"geom","properties":{"Name":"Reservoir","Address":"11550 SCAGGSVILLE RD","City":"Fulton","Zipcode":"20759"}},{"type":"Feature","id":"Schools_High.fid-e737583_15834bdec5b_70ee","geometry":{"type":"Point","coordinates":[1365398.2993065747,568135.069815855]},"geometry_name":"geom","properties":{"Name":"Howard","Address":"8700 OLD ANNAPOLIS RD","City":"Ellicott City","Zipcode":"21043"}},{"type":"Feature","id":"Schools_High.fid-e737583_15834bdec5b_70ef","geometry":{"type":"Point","coordinates":[1349612.5861487142,577661.5770834866]},"geometry_name":"geom","properties":{"Name":"Centennial HS","Address":"4300 CENTENNIAL LN","City":"Ellicott City","Zipcode":"21042"}},{"type":"Feature","id":"Schools_High.fid-e737583_15834bdec5b_70f0","geometry":{"type":"Point","coordinates":[1332622.2677893678,564178.8372809453]},"geometry_name":"geom","properties":{"Name":"River Hill","Address":"12101 CLARKSVILLE PK","City":"Clarksville","Zipcode":"21029"}},{"type":"Feature","id":"Schools_High.fid-e737583_15834bdec5b_70f1","geometry":{"type":"Point","coordinates":[1357905.2218105479,561667.7797909671]},"geometry_name":"geom","properties":{"Name":"Oakland Mills","Address":"9410 KILIMANJARO RD","City":"Columbia","Zipcode":"21045"}},{"type":"Feature","id":"Schools_High.fid-e737583_15834bdec5b_70f2","geometry":{"type":"Point","coordinates":[1348368.76396545,564808.0649736555]},"geometry_name":"geom","properties":{"Name":"Wilde Lake","Address":"5460 TRUMPETER RD","City":"Columbia","Zipcode":"21044"}}],"crs":{"type":"name","properties":{"name":"urn:ogc:def:crs:EPSG::2248"}}}