{"type":"FeatureCollection","totalFeatures":3,"features":[{"type":"Feature","id":"Police_Stations.fid-e737583_15834bdec5b_70f3","geometry":{"type":"Point","coordinates":[1366857.522225576,586075.3756591723]},"geometry_name":"geom","properties":{"Name":"Northern District Headquarters","Address":"3410 COURT HOUSE DR","City":"Ellicott City","Zipcode":"21043"}},{"type":"Feature","id":"Police_Stations.fid-e737583_15834bdec5b_70f4","geometry":{"type":"Point","coordinates":[1374561.025168607,548588.0383758034]},"geometry_name":"geom","properties":{"Name":"Maryland State Police","Address":"7745 WASHINGTON BLVD","City":"Jessup","Zipcode":"20794"}},{"type":"Feature","id":"Police_Stations.fid-e737583_15834bdec5b_70f5","geometry":{"type":"Point","coordinates":[1340376.4016118585,539192.0592714037]},"geometry_name":"geom","properties":{"Name":"Southern District Headquarters","Address":"11226 SCAGGSVILLE RD","City":"Laurel","Zipcode":"20723"}}],"crs":{"type":"name","properties":{"name":"urn:ogc:def:crs:EPSG::2248"}}}