{"type":"FeatureCollection","totalFeatures":7,"features":[{"type":"Feature","id":"Senior_Centers.1","geometry":{"type":"Point","coordinates":[1355685.072379432,554975.4311169193]},"geometry_name":"geom","properties":{"UID":4706,"NAME":"East Columbia  50+","PLACE_TYPE":"Senior Center","NUMBER":"6600","SUITE":"","STREET":"CRADLEROCK","SUFFIX":"WAY","CITY":"Columbia","ZIP":"21045","WORKPROGRE":"Address Checked"}},{"type":"Feature","id":"Senior_Centers.2","geometry":{"type":"Point","coordinates":[1387041.390623459,559021.2188490239]},"geometry_name":"geom","properties":{"UID":4707,"NAME":"Elkridge  50+","PLACE_TYPE":"Senior Center","NUMBER":"6540","SUITE":"","STREET":"WASHINGTON","SUFFIX":"BLVD","CITY":"Elkridge","ZIP":"21075","WORKPROGRE":"Address Checked"}},{"type":"Feature","id":"Senior_Centers.3","geometry":{"type":"Point","coordinates":[1358050.968504022,584637.8098793619]},"geometry_name":"geom","properties":{"UID":4708,"NAME":"Ellicott City  50+ & Senior Center Plus","PLACE_TYPE":"Senior Center","NUMBER":"9401","SUITE":"","STREET":"FREDERICK","SUFFIX":"RD","CITY":"Ellicott City","ZIP":"21042","WORKPROGRE":"Address Checked"}},{"type":"Feature","id":"Senior_Centers.4","geometry":{"type":"Point","coordinates":[1305838.3353519992,596839.5751688711]},"geometry_name":"geom","properties":{"UID":4709,"NAME":"Glenwood 50+ & Senior Center Plus","PLACE_TYPE":"Senior Center","NUMBER":"2400","SUITE":"","STREET":"RT 97","SUFFIX":"","CITY":"Woodbine","ZIP":"21797","WORKPROGRE":"Address Checked"}},{"type":"Feature","id":"Senior_Centers.6","geometry":{"type":"Point","coordinates":[1363982.6833299985,560405.8124370293]},"geometry_name":"geom","properties":{"UID":4711,"NAME":"Longwood Senior Center","PLACE_TYPE":"Senior Center","NUMBER":"6150","SUITE":"","STREET":"FORELAND GARTH","SUFFIX":"","CITY":"Columbia","ZIP":"21045","WORKPROGRE":"Address Checked"}},{"type":"Feature","id":"Senior_Centers.9","geometry":{"type":"Point","coordinates":[1344002.5091061278,566973.4862287077]},"geometry_name":"geom","properties":{"UID":4705,"NAME":"Bain Center 50+","PLACE_TYPE":"Senior Center","NUMBER":"5470","SUITE":"","STREET":"RUTH KEETON","SUFFIX":"WAY","CITY":"Columbia","ZIP":"21044","WORKPROGRE":"Address Checked"}},{"type":"Feature","id":"Senior_Centers.12","geometry":{"type":"Point","coordinates":[1358801.9444386705,527957.857312161]},"geometry_name":"geom","properties":{"UID":4710,"NAME":"North Laurel 50+ & Senior Center Plus","PLACE_TYPE":"Senior Center","NUMBER":"9411","SUITE":null,"STREET":"WHISKEY BOTTOM","SUFFIX":"RD","CITY":"Jessup","ZIP":"20794","WORKPROGRE":"Address Checked"}}],"crs":{"type":"name","properties":{"name":"urn:ogc:def:crs:EPSG::2248"}}}