{"type":"FeatureCollection","totalFeatures":17,"features":[{"type":"Feature","id":"Post_Offices.fid-e737583_15834bdec5b_5178","geometry":{"type":"Point","coordinates":[1316892.7461277863,571662.5495275924]},"geometry_name":"geom","properties":{"Name":"Dayton","Address":"4924 TEN OAKS RD","City":"Dayton","Zipcode":"21036"}},{"type":"Feature","id":"Post_Offices.fid-e737583_15834bdec5b_5179","geometry":{"type":"Point","coordinates":[1353217.0365037925,587865.0162828572]},"geometry_name":"geom","properties":{"Name":"Enchanted Forest","Address":"10020 BALTIMORE NATIONAL PK","City":"Ellicott City","Zipcode":"21042"}},{"type":"Feature","id":"Post_Offices.fid-e737583_15834bdec5b_517a","geometry":{"type":"Point","coordinates":[1325006.27139523,596366.6140714791]},"geometry_name":"geom","properties":{"Name":"West Friendship","Address":"12800 FREDERICK RD","City":"West Friendship","Zipcode":"21794"}},{"type":"Feature","id":"Post_Offices.fid-e737583_15834bdec5b_517b","geometry":{"type":"Point","coordinates":[1292766.9857331067,608165.3649699022]},"geometry_name":"geom","properties":{"Name":"Lisbon","Address":"1280 HOPKINS ALY","City":"Woodbine","Zipcode":"21797"}},{"type":"Feature","id":"Post_Offices.fid-e737583_15834bdec5b_517c","geometry":{"type":"Point","coordinates":[1304408.5760403739,590913.6976200487]},"geometry_name":"geom","properties":{"Name":"Glenwood","Address":"2960 RT 97","City":"Glenwood","Zipcode":"21738"}},{"type":"Feature","id":"Post_Offices.fid-e737583_15834bdec5b_517d","geometry":{"type":"Point","coordinates":[1345499.4856866917,600683.4087075138]},"geometry_name":"geom","properties":{"Name":"Woodstock","Address":"10501 OLD FREDERICK RD","City":"Woodstock","Zipcode":"21163"}},{"type":"Feature","id":"Post_Offices.fid-e737583_15834bdec5b_517e","geometry":{"type":"Point","coordinates":[1383877.3996532778,555105.3739520649]},"geometry_name":"geom","properties":{"Name":"Elkridge","Address":"6665 SANTA BARBARA RD","City":"Elkridge","Zipcode":"21075"}},{"type":"Feature","id":"Post_Offices.fid-e737583_15834bdec5b_517f","geometry":{"type":"Point","coordinates":[1348868.3414870575,552738.3071713023]},"geometry_name":"geom","properties":{"Name":"Simpsonville","Address":"10400 SHAKER DR","City":"Columbia","Zipcode":"21046"}},{"type":"Feature","id":"Post_Offices.fid-e737583_15834bdec5b_5180","geometry":{"type":"Point","coordinates":[1362496.8279830732,535968.0721723827]},"geometry_name":"geom","properties":{"Name":"Savage","Address":"8926 BALTIMORE ST","City":"Savage","Zipcode":"20763"}},{"type":"Feature","id":"Post_Offices.fid-e737583_15834bdec5b_5181","geometry":{"type":"Point","coordinates":[1323210.4848266395,551741.2007763891]},"geometry_name":"geom","properties":{"Name":"Highland","Address":"12975 HIGHLAND RD","City":"Highland","Zipcode":"20777"}},{"type":"Feature","id":"Post_Offices.fid-e737583_15834bdec5b_5182","geometry":{"type":"Point","coordinates":[1365213.3356313223,586872.5925126339]},"geometry_name":"geom","properties":{"Name":"Ellicott City","Address":"3375 ELLICOTT CENTER DR","City":"Ellicott City","Zipcode":"21043"}},{"type":"Feature","id":"Post_Offices.fid-e737583_15834bdec5b_5183","geometry":{"type":"Point","coordinates":[1316032.0211769675,581971.9331105727]},"geometry_name":"geom","properties":{"Name":"Glenelg","Address":"3900 TEN OAKS RD","City":"Glenelg","Zipcode":"21737"}},{"type":"Feature","id":"Post_Offices.fid-e737583_15834bdec5b_5184","geometry":{"type":"Point","coordinates":[1369742.6043626629,533243.6625949694]},"geometry_name":"geom","properties":{"Name":"Annapolis Junction","Address":"10820 GUILFORD RD","City":"Annapolis Junction","Zipcode":"20701"}},{"type":"Feature","id":"Post_Offices.fid-e737583_15834bdec5b_5185","geometry":{"type":"Point","coordinates":[1333854.090746864,540881.9014563843]},"geometry_name":"geom","properties":{"Name":"Fulton","Address":"11831 SCAGGSVILLE RD","City":"Fulton","Zipcode":"20759"}},{"type":"Feature","id":"Post_Offices.fid-e737583_15834bdec5b_5186","geometry":{"type":"Point","coordinates":[1369191.517969466,583068.5452801471]},"geometry_name":"geom","properties":{"Name":"Ellicott Mills","Address":"8267 MAIN ST","City":"Ellicott City","Zipcode":"21043"}},{"type":"Feature","id":"Post_Offices.fid-e737583_15834bdec5b_5187","geometry":{"type":"Point","coordinates":[1362810.563837299,552479.006829097]},"geometry_name":"geom","properties":{"Name":"Columbia","Address":"6801 OAK HALL LN","City":"Columbia","Zipcode":"21045"}},{"type":"Feature","id":"Post_Offices.fid-e737583_15834bdec5b_5188","geometry":{"type":"Point","coordinates":[1352886.0334710227,563968.4118339414]},"geometry_name":"geom","properties":{"Name":"American City Branch","Address":"10227 WINCOPIN CIR","City":"Columbia","Zipcode":"21044"}}],"crs":{"type":"name","properties":{"name":"urn:ogc:def:crs:EPSG::2248"}}}