{"type":"FeatureCollection","totalFeatures":8,"features":[{"type":"Feature","id":"Pools_Private.fid-e737583_15834bdec5b_78f","geometry":{"type":"Point","coordinates":[1378401.655406484,562050.5843593694]},"geometry_name":"geom","properties":{"Name":"WATERMONT SWIM CLUB","Address":"5819 BELLANCA DR","City":"Elkridge","Zipcode":"21075"}},{"type":"Feature","id":"Pools_Private.fid-e737583_15834bdec5b_790","geometry":{"type":"Point","coordinates":[1342247.6955035743,598063.1875294516]},"geometry_name":"geom","properties":{"Name":"WAVERLY POOL","Address":"2140 WARWICK WAY","City":"Marriottsville","Zipcode":"21104"}},{"type":"Feature","id":"Pools_Private.fid-e737583_15834bdec5b_791","geometry":{"type":"Point","coordinates":[1352170.1772215487,552939.9526970127]},"geometry_name":"geom","properties":{"Name":"ATHOLTON SWIM CLUB","Address":"6731 SENECA DR","City":"Columbia","Zipcode":"21046"}},{"type":"Feature","id":"Pools_Private.fid-e737583_15834bdec5b_792","geometry":{"type":"Point","coordinates":[1291129.823075888,612480.6962857214]},"geometry_name":"geom","properties":{"Name":"WEST HOWARD SWIM CLUB","Address":"16131 OLD FREDERICK RD","City":"Mount Airy","Zipcode":"21771"}},{"type":"Feature","id":"Pools_Private.fid-e737583_15834bdec5b_793","geometry":{"type":"Point","coordinates":[1361173.9865081662,577686.1608631088]},"geometry_name":"geom","properties":{"Name":"FOREST HILL SWIM AND TENNIS CLUB","Address":"4310 COLUMBIA RD","City":"Ellicott City","Zipcode":"21042"}},{"type":"Feature","id":"Pools_Private.fid-e737583_15834bdec5b_794","geometry":{"type":"Point","coordinates":[1344409.312126066,593410.1219078708]},"geometry_name":"geom","properties":{"Name":"TURF VALLEY RESORT","Address":"2702 TURF VALLEY RD","City":"Ellicott City","Zipcode":"21042"}},{"type":"Feature","id":"Pools_Private.fid-e737583_15834bdec5b_795","geometry":{"type":"Point","coordinates":[1360627.5827396594,592632.8062093414]},"geometry_name":"geom","properties":{"Name":"NORTH ST JOHNS LN SWIM CLUB","Address":"9200 MARYDELL RD","City":"Ellicott City","Zipcode":"21042"}},{"type":"Feature","id":"Pools_Private.fid-e737583_15834bdec5b_796","geometry":{"type":"Point","coordinates":[1348015.8111294461,565383.7351464744]},"geometry_name":"geom","properties":{"Name":"WILDE LAKE SWIM CENTER","Address":"10400 CROSS FOX LN","City":"Columbia","Zipcode":"21044"}}],"crs":{"type":"name","properties":{"name":"urn:ogc:def:crs:EPSG::2248"}}}